raw inform: lat 38.5438263 lon 115.04039019999999raw inform: lat 38.5438263 lon 115.04039019999999 alt -3.411 time 831671 pitch -0.04644067585468292 roll 0.024706464260816574yaw -0.6523397564888
raw inform: lat 38.5438263 lon 115.04039019999999raw inform: lat 38.5438263 lon 115.04039019999999 alt -3.412 time 831789 pitch -0.0465153306722641 roll 0.024708865210413933yaw -0.6523268222808838
raw inform: lat 38.5438263 lon 115.04039019999999raw inform: lat 38.5438263 lon 115.04039019999999 alt -3.412 time 831850 pitch -0.04654306918382645 roll 0.02470357157289982yaw -0.6523458361625671
raw inform: lat 38.5438263 lon 115.04039019999999raw inform: lat 38.5438263 lon 115.04039019999999 alt -3.412 time 831970 pitch -0.04656697437167168 roll 0.024708665907382965yaw -0.6523547172546387
raw inform: lat 38.5438263 lon 115.04039019999999raw inform: lat 38.5438263 lon 115.04039019999999 alt -3.412 time 832050 pitch -0.04663980007171631 roll 0.024746432900428772yaw -0.6523484587669373
raw inform: lat 38.5438263 lon 115.04039019999999raw inform: lat 38.5438263 lon 115.04039019999999 alt -3.414 time 832170 pitch -0.04666171967983246 roll 0.024707486853003502yaw -0.6523593664169312
raw inform: lat 38.5438263 lon 115.04039019999999raw inform: lat 38.5438263 lon 115.04039019999999 alt -3.415 time 832229 pitch -0.04671050235629082 roll 0.024729717522859573yaw -0.6523709893226624
raw inform: lat 38.5438263 lon 115.04039019999999raw inform: lat 38.5438263 lon 115.04039019999999 alt -3.416 time 832289 pitch -0.04672940820455551 roll 0.02472384087741375yaw -0.6523298025131226
raw inform: lat 38.5438264 lon 115.04039019999999raw inform: lat 38.5438264 lon 115.04039019999999 alt -3.416 time 832410 pitch -0.046707235276699066 roll 0.024688871577382088yaw -0.6522996425628662
raw inform: lat 38.5438264 lon 115.0403901raw inform: lat 38.5438264 lon 115.0403901 alt -3.415 time 832570 pitch -0.046691738069057465 roll 0.024672463536262512yaw -0.6522834897041321
raw inform: lat 38.5438264 lon 115.0403901raw inform: lat 38.5438264 lon 115.0403901 alt -3.415 time 832650 pitch -0.04667932912707329 roll 0.02464483305811882yaw -0.6522555351257324
raw inform: lat 38.5438264 lon 115.04038999999999raw inform: lat 38.5438264 lon 115.04038999999999 alt -3.4130000000000003 time 832770 pitch -0.046643923968076706 roll 0.02460593916475773yaw -0.6522578597068787
raw inform: lat 38.5438264 lon 115.04038999999999raw inform: lat 38.5438264 lon 115.04038999999999 alt -3.4130000000000003 time 832850 pitch -0.04660399258136749 roll 0.02453777752816677yaw -0.6522564888000488
raw inform: lat 38.5438263 lon 115.04038999999999raw inform: lat 38.5438263 lon 115.04038999999999 alt -3.411 time 832970 pitch -0.046598728746175766 roll 0.024527238681912422yaw -0.6522383689880371
raw inform: lat 38.5438263 lon 115.04038999999999raw inform: lat 38.5438263 lon 115.04038999999999 alt -3.41 time 833010 pitch -0.04659167677164078 roll 0.024518031626939774yaw -0.6522236466407776
raw inform: lat 38.5438263 lon 115.04038999999999raw inform: lat 38.5438263 lon 115.04038999999999 alt -3.4090000000000003 time 833050 pitch -0.04659167677164078 roll 0.024518031626939774yaw -0.6522236466407776
raw inform: lat 38.5438263 lon 115.04038999999999raw inform: lat 38.5438263 lon 115.04038999999999 alt -3.4090000000000003 time 833050 pitch -0.04653488099575043 roll 0.02459251508116722yaw -0.6521804332733154
raw inform: lat 38.5438263 lon 115.04038999999999raw inform: lat 38.5438263 lon 115.04038999999999 alt -3.3850000000000002 time 833809 pitch -0.04647303745150566 roll 0.02460896037518978yaw -0.6521526575088501
raw inform: lat 38.5438263 lon 115.04038999999999raw inform: lat 38.5438263 lon 115.04038999999999 alt -3.383 time 833930 pitch -0.04652578383684158 roll 0.024645106866955757yaw -0.6521556973457336
raw inform: lat 38.5438263 lon 115.04038999999999raw inform: lat 38.5438263 lon 115.04038999999999 alt -3.3810000000000002 time 834009 pitch -0.046513669192790985 roll 0.02462480589747429yaw -0.6521718502044678
raw inform: lat 38.5438263 lon 115.04038999999999raw inform: lat 38.5438263 lon 115.04038999999999 alt -3.38 time 834050 pitch -0.04643862694501877 roll 0.02463839203119278yaw -0.6521649956703186
raw inform: lat 38.5438263 lon 115.04038999999999raw inform: lat 38.5438263 lon 115.04038999999999 alt -3.378 time 834112 pitch -0.04645853489637375 roll 0.024613121524453163yaw -0.6521028280258179
raw inform: lat 38.5438263 lon 115.04038999999999raw inform: lat 38.5438263 lon 115.04038999999999 alt -3.378 time 834229 pitch -0.046537064015865326 roll 0.02461872808635235yaw -0.6520946621894836
raw inform: lat 38.5438263 lon 115.04038999999999raw inform: lat 38.5438263 lon 115.04038999999999 alt -3.375 time 834350 pitch -0.04649816453456879 roll 0.02465043030679226yaw -0.652069091796875
raw inform: lat 38.5438263 lon 115.04038999999999raw inform: lat 38.5438263 lon 115.04038999999999 alt -3.372 time 834429 pitch -0.04648552089929581 roll 0.02465621940791607yaw -0.6520491242408752
raw inform: lat 38.5438262 lon 115.04038999999999raw inform: lat 38.5438262 lon 115.04038999999999 alt -3.369 time 834489 pitch -0.04645785316824913 roll 0.0246675293892622yaw -0.6520487666130066
raw inform: lat 38.5438262 lon 115.04038999999999raw inform: lat 38.5438262 lon 115.04038999999999 alt -3.362 time 834670 pitch -0.0463893786072731 roll 0.02463371865451336yaw -0.6520528197288513
raw inform: lat 38.5438262 lon 115.04038999999999raw inform: lat 38.5438262 lon 115.04038999999999 alt -3.359 time 834730 pitch -0.046391990035772324 roll 0.02464435063302517yaw -0.6520628929138184
raw inform: lat 38.5438262 lon 115.04038999999999raw inform: lat 38.5438262 lon 115.04038999999999 alt -3.355 time 834829 pitch -0.04636618122458458 roll 0.02463301084935665yaw -0.6520273089408875
raw inform: lat 38.5438262 lon 115.04038999999999raw inform: lat 38.5438262 lon 115.04038999999999 alt -3.351 time 834970 pitch -0.046339306980371475 roll 0.02465074136853218yaw -0.6519870162010193
raw inform: lat 38.5438262 lon 115.04038999999999raw inform: lat 38.5438262 lon 115.04038999999999 alt -3.35 time 835010 pitch -0.04634883254766464 roll 0.0246534813195467yaw -0.6519792675971985
raw inform: lat 38.5438262 lon 115.04038999999999raw inform: lat 38.5438262 lon 115.04038999999999 alt -3.348 time 835089 pitch -0.046345293521881104 roll 0.02467300370335579yaw -0.6519676446914673
raw inform: lat 38.5438262 lon 115.04038999999999raw inform: lat 38.5438262 lon 115.04038999999999 alt -3.348 time 835090 pitch -0.046368516981601715 roll 0.0246590543538332yaw -0.6519666910171509
raw inform: lat 38.5438261 lon 115.04038999999999raw inform: lat 38.5438261 lon 115.04038999999999 alt -3.346 time 835150 pitch -0.04644697904586792 roll 0.024632439017295837yaw -0.6519657969474792
raw inform: lat 38.5438261 lon 115.04038999999999raw inform: lat 38.5438261 lon 115.04038999999999 alt -3.344 time 835229 pitch -0.04639821499586105 roll 0.024625834077596664yaw -0.6519390344619751
raw inform: lat 38.5438261 lon 115.04038999999999raw inform: lat 38.5438261 lon 115.04038999999999 alt -3.341 time 835389 pitch -0.046399883925914764 roll 0.02461070381104946yaw -0.6519504189491272
raw inform: lat 38.543825999999996 lon 115.04038999999999raw inform: lat 38.543825999999996 lon 115.04038999999999 alt -3.336 time 836270 pitch -0.046213068068027496 roll 0.02487948350608349yaw -0.6518245339393616
raw inform: lat 38.543825999999996 lon 115.04038999999999raw inform: lat 38.543825999999996 lon 115.04038999999999 alt -3.336 time 836350 pitch -0.04622414708137512 roll 0.024878475815057755yaw -0.6517977118492126
raw inform: lat 38.543825999999996 lon 115.0403901raw inform: lat 38.543825999999996 lon 115.0403901 alt -3.337 time 836429 pitch -0.046276889741420746 roll 0.024930676445364952yaw -0.6517858505249023
raw inform: lat 38.543825999999996 lon 115.0403901raw inform: lat 38.543825999999996 lon 115.0403901 alt -3.46 time 836590 pitch -0.0463438481092453 roll 0.024921244010329247yaw -0.6517959237098694
raw inform: lat 38.543825999999996 lon 115.0403901raw inform: lat 38.543825999999996 lon 115.0403901 alt -3.486 time 836689 pitch -0.0463578999042511 roll 0.024923883378505707yaw -0.65177983045578
raw inform: lat 38.543825999999996 lon 115.0403901raw inform: lat 38.543825999999996 lon 115.0403901 alt -3.494 time 836729 pitch -0.04637407884001732 roll 0.02496488392353058yaw -0.6517887115478516
raw inform: lat 38.543825999999996 lon 115.0403901raw inform: lat 38.543825999999996 lon 115.0403901 alt -3.507 time 836810 pitch -0.04639006406068802 roll 0.024978604167699814yaw -0.6517910361289978
raw inform: lat 38.543825999999996 lon 115.04039019999999raw inform: lat 38.543825999999996 lon 115.04039019999999 alt -3.515 time 836890 pitch -0.046440400183200836 roll 0.025047091767191887yaw -0.6517295837402344
raw inform: lat 38.5438261 lon 115.04039019999999raw inform: lat 38.5438261 lon 115.04039019999999 alt -3.528 time 837050 pitch -0.04643616825342178 roll 0.02504889853298664yaw -0.651728630065918
raw inform: lat 38.5438261 lon 115.04039019999999raw inform: lat 38.5438261 lon 115.04039019999999 alt -3.5300000000000002 time 837090 pitch -0.046484850347042084 roll 0.02502831071615219yaw -0.6517322063446045
raw inform: lat 38.5438261 lon 115.04039019999999raw inform: lat 38.5438261 lon 115.04039019999999 alt -3.533 time 837170 pitch -0.046551674604415894 roll 0.025003356859087944yaw -0.6517348289489746
raw inform: lat 38.5438261 lon 115.04039019999999raw inform: lat 38.5438261 lon 115.04039019999999 alt -3.535 time 837229 pitch -0.04663451015949249 roll 0.02497251145541668yaw -0.6517159938812256
raw inform: lat 38.5438261 lon 115.04039019999999raw inform: lat 38.5438261 lon 115.04039019999999 alt -3.5380000000000003 time 837409 pitch -0.04668290540575981 roll 0.02496040239930153yaw -0.651705265045166
raw inform: lat 38.5438261 lon 115.0403901raw inform: lat 38.5438261 lon 115.0403901 alt -3.541 time 837609 pitch -0.04666406288743019 roll 0.02487454190850258yaw -0.6517057418823242
raw inform: lat 38.5438261 lon 115.0403901raw inform: lat 38.5438261 lon 115.0403901 alt -3.541 time 837689 pitch -0.046725280582904816 roll 0.02487991563975811yaw -0.6517245769500732
raw inform: lat 38.5438261 lon 115.0403901raw inform: lat 38.5438261 lon 115.0403901 alt -3.54 time 837712 pitch -0.04669773206114769 roll 0.024856790900230408yaw -0.6517142653465271
raw inform: lat 38.5438261 lon 115.0403901raw inform: lat 38.5438261 lon 115.0403901 alt -3.539 time 837770 pitch -0.046716127544641495 roll 0.024849895387887955yaw -0.6517159342765808
raw inform: lat 38.5438261 lon 115.0403901raw inform: lat 38.5438261 lon 115.0403901 alt -3.5380000000000003 time 837850 pitch -0.04706493020057678 roll 0.02488475665450096yaw -0.6516115665435791
raw inform: lat 38.5438261 lon 115.04038999999999raw inform: lat 38.5438261 lon 115.04038999999999 alt -3.545 time 838670 pitch -0.047099653631448746 roll 0.024843808263540268yaw -0.6515746116638184
raw inform: lat 38.5438262 lon 115.04038999999999raw inform: lat 38.5438262 lon 115.04038999999999 alt -3.544 time 838830 pitch -0.04706253856420517 roll 0.024863500148057938yaw -0.6515549421310425
raw inform: lat 38.5438262 lon 115.04038999999999raw inform: lat 38.5438262 lon 115.04038999999999 alt -3.541 time 838989 pitch -0.04708149656653404 roll 0.024887828156352043yaw -0.6515672206878662
raw inform: lat 38.5438262 lon 115.04038999999999raw inform: lat 38.5438262 lon 115.04038999999999 alt -3.54 time 839070 pitch -0.04706832766532898 roll 0.024919278919696808yaw -0.6515324115753174
raw inform: lat 38.5438262 lon 115.04038999999999raw inform: lat 38.5438262 lon 115.04038999999999 alt -3.54 time 839089 pitch -0.047098468989133835 roll 0.024921376258134842yaw -0.6515042781829834
raw inform: lat 38.5438262 lon 115.0403899raw inform: lat 38.5438262 lon 115.0403899 alt -3.5380000000000003 time 839229 pitch -0.04708843305706978 roll 0.024923812597990036yaw -0.6515044569969177
raw inform: lat 38.5438271 lon 115.0403848raw inform: lat 38.5438271 lon 115.0403848 alt -3.802 time 949889 pitch -0.045795194804668427 roll 0.02417338266968727yaw -0.6530697345733643
raw inform: lat 38.5438271 lon 115.0403848raw inform: lat 38.5438271 lon 115.0403848 alt -3.802 time 949950 pitch -0.04577634111046791 roll 0.024122195318341255yaw -0.6530745625495911
raw inform: lat 38.5438271 lon 115.0403848raw inform: lat 38.5438271 lon 115.0403848 alt -3.802 time 950009 pitch -0.04578220844268799 roll 0.024103762581944466yaw -0.6530808806419373
raw inform: lat 38.5438271 lon 115.0403848raw inform: lat 38.5438271 lon 115.0403848 alt -3.803 time 950089 pitch -0.045685190707445145 roll 0.024122869595885277yaw -0.6530688405036926
raw inform: lat 38.543827 lon 115.0403848raw inform: lat 38.543827 lon 115.0403848 alt -3.802 time 950189 pitch -0.04567017778754234 roll 0.024089468643069267yaw -0.6530777215957642
raw inform: lat 38.543827 lon 115.0403848raw inform: lat 38.543827 lon 115.0403848 alt -3.802 time 950270 pitch -0.04557911306619644 roll 0.024077124893665314yaw -0.6530402898788452
raw inform: lat 38.543827 lon 115.04038489999999raw inform: lat 38.543827 lon 115.04038489999999 alt -3.799 time 950370 pitch -0.045525893568992615 roll 0.024058526381850243yaw -0.6530457139015198
raw inform: lat 38.5438269 lon 115.04038489999999raw inform: lat 38.5438269 lon 115.04038489999999 alt -3.7960000000000003 time 950450 pitch -0.04549761489033699 roll 0.02408098615705967yaw -0.6530126929283142
raw inform: lat 38.5438269 lon 115.04038489999999raw inform: lat 38.5438269 lon 115.04038489999999 alt -3.728 time 950570 pitch -0.04544943571090698 roll 0.02413235604763031yaw -0.653001070022583
raw inform: lat 38.5438269 lon 115.04038489999999raw inform: lat 38.5438269 lon 115.04038489999999 alt -3.677 time 950650 pitch -0.04546543210744858 roll 0.024203814566135406yaw -0.6529773473739624
raw inform: lat 38.5438268 lon 115.04038489999999raw inform: lat 38.5438268 lon 115.04038489999999 alt -3.612 time 950809 pitch -0.04547884687781334 roll 0.024210667237639427yaw -0.6529431939125061
raw inform: lat 38.5438268 lon 115.04038489999999raw inform: lat 38.5438268 lon 115.04038489999999 alt -3.591 time 950889 pitch -0.0454980805516243 roll 0.024218842387199402yaw -0.6529244184494019
raw inform: lat 38.5438269 lon 115.04038489999999raw inform: lat 38.5438269 lon 115.04038489999999 alt -3.5700000000000003 time 950989 pitch -0.04551525041460991 roll 0.024258838966488838yaw -0.6529200673103333
raw inform: lat 38.5438269 lon 115.04038489999999raw inform: lat 38.5438269 lon 115.04038489999999 alt -3.559 time 951071 pitch -0.045578937977552414 roll 0.024254625663161278yaw -0.6528781652450562
raw inform: lat 38.5438269 lon 115.04038489999999raw inform: lat 38.5438269 lon 115.04038489999999 alt -3.545 time 951210 pitch -0.045578937977552414 roll 0.024254625663161278yaw -0.6528781652450562
raw inform: lat 38.5438269 lon 115.04038489999999raw inform: lat 38.5438269 lon 115.04038489999999 alt -3.545 time 951210 pitch -0.04559077322483063 roll 0.02425229921936989yaw -0.6528712511062622
raw inform: lat 38.5438269 lon 115.04038489999999raw inform: lat 38.5438269 lon 115.04038489999999 alt -3.543 time 951250 pitch -0.04558708146214485 roll 0.024260198697447777yaw -0.6528761982917786
raw inform: lat 38.5438269 lon 115.04038489999999raw inform: lat 38.5438269 lon 115.04038489999999 alt -3.541 time 951290 pitch -0.04558708146214485 roll 0.024260198697447777yaw -0.6528761982917786
raw inform: lat 38.5438269 lon 115.04038489999999raw inform: lat 38.5438269 lon 115.04038489999999 alt -3.541 time 951290 pitch -0.045600198209285736 roll 0.024258986115455627yaw -0.6528757810592651
raw inform: lat 38.543827 lon 115.0403848raw inform: lat 38.543827 lon 115.0403848 alt -3.552 time 952129 pitch -0.04589070752263069 roll 0.024390680715441704yaw -0.6528928279876709
raw inform: lat 38.543827 lon 115.0403848raw inform: lat 38.543827 lon 115.0403848 alt -3.5540000000000003 time 952189 pitch -0.045881982892751694 roll 0.02437671460211277yaw -0.6528777480125427
raw inform: lat 38.543827 lon 115.0403848raw inform: lat 38.543827 lon 115.0403848 alt -3.557 time 952250 pitch -0.04589863494038582 roll 0.0243958979845047yaw -0.6528976559638977
raw inform: lat 38.543827 lon 115.0403848raw inform: lat 38.543827 lon 115.0403848 alt -3.557 time 952270 pitch -0.04591655731201172 roll 0.024468770250678062yaw -0.6529170274734497
raw inform: lat 38.543827 lon 115.04038469999999raw inform: lat 38.543827 lon 115.04038469999999 alt -3.568 time 952430 pitch -0.04593765735626221 roll 0.024469763040542603yaw -0.6529200077056885
raw inform: lat 38.5438271 lon 115.04038469999999raw inform: lat 38.5438271 lon 115.04038469999999 alt -3.569 time 952450 pitch -0.04599488154053688 roll 0.02449699677526951yaw -0.6529063582420349
raw inform: lat 38.5438271 lon 115.04038469999999raw inform: lat 38.5438271 lon 115.04038469999999 alt -3.576 time 952570 pitch -0.04596041142940521 roll 0.024510441347956657yaw -0.652898907661438
raw inform: lat 38.5438271 lon 115.04038469999999raw inform: lat 38.5438271 lon 115.04038469999999 alt -3.577 time 952589 pitch -0.046016208827495575 roll 0.024469522759318352yaw -0.6529256105422974
raw inform: lat 38.5438271 lon 115.04038469999999raw inform: lat 38.5438271 lon 115.04038469999999 alt -3.58 time 952650 pitch -0.04604336619377136 roll 0.024467993527650833yaw -0.6529330015182495
raw inform: lat 38.5438271 lon 115.04038469999999raw inform: lat 38.5438271 lon 115.04038469999999 alt -3.581 time 952689 pitch -0.046101149171590805 roll 0.02443561889231205yaw -0.652909517288208
raw inform: lat 38.5438271 lon 115.0403846raw inform: lat 38.5438271 lon 115.0403846 alt -3.587 time 952850 pitch -0.04608242213726044 roll 0.024435780942440033yaw -0.6529083847999573
raw inform: lat 38.5438271 lon 115.0403846raw inform: lat 38.5438271 lon 115.0403846 alt -3.587 time 952890 pitch -0.046096544712781906 roll 0.024459877982735634yaw -0.6528877019882202
raw inform: lat 38.543827199999996 lon 115.0403846raw inform: lat 38.543827199999996 lon 115.0403846 alt -3.592 time 953050 pitch -0.04611780866980553 roll 0.024483516812324524yaw -0.6528804302215576
raw inform: lat 38.543827199999996 lon 115.0403846raw inform: lat 38.543827199999996 lon 115.0403846 alt -3.592 time 953050 pitch -0.046076901257038116 roll 0.024468863382935524yaw -0.6528555750846863
raw inform: lat 38.543827199999996 lon 115.0403845raw inform: lat 38.543827199999996 lon 115.0403845 alt -3.594 time 953130 pitch -0.046140290796756744 roll 0.024456802755594254yaw -0.6528840661048889
raw inform: lat 38.5438271 lon 115.0403845raw inform: lat 38.5438271 lon 115.0403845 alt -3.596 time 953209 pitch -0.04610583558678627 roll 0.024434708058834076yaw -0.6528788208961487
raw inform: lat 38.5438271 lon 115.0403845raw inform: lat 38.5438271 lon 115.0403845 alt -3.597 time 953230 pitch -0.04612736776471138 roll 0.024401666596531868yaw -0.652867317199707
raw inform: lat 38.5438271 lon 115.0403844raw inform: lat 38.5438271 lon 115.0403844 alt -3.6 time 953389 pitch -0.04620996117591858 roll 0.024256326258182526yaw -0.6528611779212952
raw inform: lat 38.5438271 lon 115.0403843raw inform: lat 38.5438271 lon 115.0403843 alt -3.601 time 953490 pitch -0.04623386263847351 roll 0.02423887327313423yaw -0.65284264087677
raw inform: lat 38.5438271 lon 115.0403843raw inform: lat 38.5438271 lon 115.0403843 alt -3.602 time 953550 pitch -0.04622131586074829 roll 0.02423672564327717yaw -0.652827262878418
raw inform: lat 38.5438271 lon 115.0403843raw inform: lat 38.5438271 lon 115.0403843 alt -3.602 time 953609 pitch -0.04625166952610016 roll 0.024214155972003937yaw -0.6528493165969849
raw inform: lat 38.5438271 lon 115.0403843raw inform: lat 38.5438271 lon 115.0403843 alt -3.602 time 953630 pitch -0.04615349695086479 roll 0.024560514837503433yaw -0.6527729630470276
raw inform: lat 38.543827199999996 lon 115.04038419999999raw inform: lat 38.543827199999996 lon 115.04038419999999 alt -3.593 time 954370 pitch -0.046164415776729584 roll 0.024604443460702896yaw -0.6527957916259766
raw inform: lat 38.5438273 lon 115.04038419999999raw inform: lat 38.5438273 lon 115.04038419999999 alt -3.592 time 954429 pitch -0.04616672545671463 roll 0.02462628483772278yaw -0.652807891368866
raw inform: lat 38.5438273 lon 115.0403843raw inform: lat 38.5438273 lon 115.0403843 alt -3.589 time 954490 pitch -0.046185653656721115 roll 0.02465897426009178yaw -0.6528009176254272
raw inform: lat 38.5438273 lon 115.0403843raw inform: lat 38.5438273 lon 115.0403843 alt -3.586 time 954609 pitch -0.046173881739377975 roll 0.024658534675836563yaw -0.6527953743934631
raw inform: lat 38.5438273 lon 115.0403843raw inform: lat 38.5438273 lon 115.0403843 alt -3.586 time 954610 pitch -0.04616508632898331 roll 0.024691659957170486yaw -0.6527924537658691
raw inform: lat 38.5438273 lon 115.0403843raw inform: lat 38.5438273 lon 115.0403843 alt -3.584 time 954670 pitch -0.04616992920637131 roll 0.024677075445652008yaw -0.6527891755104065
raw inform: lat 38.5438273 lon 115.0403843raw inform: lat 38.5438273 lon 115.0403843 alt -3.584 time 954689 pitch -0.0461873933672905 roll 0.024665312841534615yaw -0.6527514457702637
raw inform: lat 38.5438273 lon 115.0403843raw inform: lat 38.5438273 lon 115.0403843 alt -3.58 time 954809 pitch -0.04621672257781029 roll 0.02468281239271164yaw -0.6527263522148132
raw inform: lat 38.5438273 lon 115.0403843raw inform: lat 38.5438273 lon 115.0403843 alt -3.579 time 954850 pitch -0.046231262385845184 roll 0.024682296440005302yaw -0.6527078151702881
raw inform: lat 38.5438273 lon 115.0403843raw inform: lat 38.5438273 lon 115.0403843 alt -3.5780000000000003 time 954889 pitch -0.04620266705751419 roll 0.02471357211470604yaw -0.6527136564254761
raw inform: lat 38.5438274 lon 115.0403843raw inform: lat 38.5438274 lon 115.0403843 alt -3.573 time 955050 pitch -0.04614907503128052 roll 0.02472655661404133yaw -0.6526951789855957
raw inform: lat 38.5438273 lon 115.0403843raw inform: lat 38.5438273 lon 115.0403843 alt -3.5700000000000003 time 955129 pitch -0.0461331307888031 roll 0.024753833189606667yaw -0.6526845693588257
raw inform: lat 38.5438273 lon 115.0403843raw inform: lat 38.5438273 lon 115.0403843 alt -3.5660000000000003 time 955209 pitch -0.04602609947323799 roll 0.02480257675051689yaw -0.652649998664856
raw inform: lat 38.5438273 lon 115.0403843raw inform: lat 38.5438273 lon 115.0403843 alt -3.565 time 955250 pitch -0.046031538397073746 roll 0.024831756949424744yaw -0.6526705622673035
raw inform: lat 38.5438273 lon 115.0403844raw inform: lat 38.5438273 lon 115.0403844 alt -3.556 time 955409 pitch -0.04596373066306114 roll 0.024847880005836487yaw -0.652640700340271
raw inform: lat 38.5438273 lon 115.0403844raw inform: lat 38.5438273 lon 115.0403844 alt -3.5540000000000003 time 955450 pitch -0.04592040553689003 roll 0.024830235168337822yaw -0.6526179313659668
raw inform: lat 38.5438273 lon 115.0403844raw inform: lat 38.5438273 lon 115.0403844 alt -3.548 time 955609 pitch -0.04588693752884865 roll 0.02481803484261036yaw -0.6525771021842957
raw inform: lat 38.5438273 lon 115.0403844raw inform: lat 38.5438273 lon 115.0403844 alt -3.545 time 955690 pitch -0.04588693752884865 roll 0.02481803484261036yaw -0.6525771021842957
raw inform: lat 38.5438273 lon 115.0403844raw inform: lat 38.5438273 lon 115.0403844 alt -3.545 time 955690 pitch -0.04593072459101677 roll 0.024826645851135254yaw -0.6525552272796631
raw inform: lat 38.5438273 lon 115.0403844raw inform: lat 38.5438273 lon 115.0403844 alt -3.535 time 955809 pitch -0.04595988988876343 roll 0.02490752749145031yaw -0.6525647640228271
raw inform: lat 38.5438273 lon 115.0403845raw inform: lat 38.5438273 lon 115.0403845 alt -3.528 time 955889 pitch -0.04597894102334976 roll 0.02492753602564335yaw -0.6525986194610596
raw inform: lat 38.5438274 lon 115.0403846raw inform: lat 38.5438274 lon 115.0403846 alt -3.528 time 956671 pitch -0.04595937207341194 roll 0.02475975826382637yaw -0.6524367332458496
raw inform: lat 38.5438273 lon 115.0403846raw inform: lat 38.5438273 lon 115.0403846 alt -3.5380000000000003 time 956830 pitch -0.04587942361831665 roll 0.024731434881687164yaw -0.6524164080619812
raw inform: lat 38.5438273 lon 115.04038469999999raw inform: lat 38.5438273 lon 115.04038469999999 alt -3.537 time 956850 pitch -0.045822881162166595 roll 0.024737561121582985yaw -0.6524172425270081
raw inform: lat 38.5438273 lon 115.04038469999999raw inform: lat 38.5438273 lon 115.04038469999999 alt -3.529 time 957010 pitch -0.04582332447171211 roll 0.024707011878490448yaw -0.6523544192314148
raw inform: lat 38.5438273 lon 115.0403848raw inform: lat 38.5438273 lon 115.0403848 alt -3.5140000000000002 time 957170 pitch -0.045794934034347534 roll 0.024670610204339027yaw -0.6523400545120239
raw inform: lat 38.5438273 lon 115.0403848raw inform: lat 38.5438273 lon 115.0403848 alt -3.5060000000000002 time 957250 pitch -0.04580117389559746 roll 0.024587135761976242yaw -0.6523169279098511
raw inform: lat 38.5438273 lon 115.0403848raw inform: lat 38.5438273 lon 115.0403848 alt -3.488 time 957389 pitch -0.04584001004695892 roll 0.02455981634557247yaw -0.6523159742355347
raw inform: lat 38.5438273 lon 115.0403848raw inform: lat 38.5438273 lon 115.0403848 alt -3.476 time 957489 pitch -0.04582427069544792 roll 0.024544334039092064yaw -0.6522703766822815
raw inform: lat 38.543827199999996 lon 115.0403848raw inform: lat 38.543827199999996 lon 115.0403848 alt -3.461 time 957630 pitch -0.045880723744630814 roll 0.024546481668949127yaw -0.6522829532623291
raw inform: lat 38.543827199999996 lon 115.0403848raw inform: lat 38.543827199999996 lon 115.0403848 alt -3.455 time 957711 pitch -0.04591330140829086 roll 0.024519074708223343yaw -0.6522420644760132
raw inform: lat 38.543827199999996 lon 115.0403848raw inform: lat 38.543827199999996 lon 115.0403848 alt -3.4450000000000003 time 957850 pitch -0.045963019132614136 roll 0.024492459371685982yaw -0.6522103548049927
raw inform: lat 38.543827199999996 lon 115.0403848raw inform: lat 38.543827199999996 lon 115.0403848 alt -3.438 time 957970 pitch -0.04599201679229736 roll 0.02445218525826931yaw -0.6521881222724915
raw inform: lat 38.543827199999996 lon 115.0403848raw inform: lat 38.543827199999996 lon 115.0403848 alt -3.435 time 958029 pitch -0.04604976624250412 roll 0.024446764960885048yaw -0.6521695852279663
raw inform: lat 38.543827199999996 lon 115.0403848raw inform: lat 38.543827199999996 lon 115.0403848 alt -3.428 time 958209 pitch -0.046063825488090515 roll 0.02451891452074051yaw -0.6521088480949402
raw inform: lat 38.543827199999996 lon 115.0403848raw inform: lat 38.543827199999996 lon 115.0403848 alt -3.426 time 958289 pitch -0.0460817925632 roll 0.02454436384141445yaw -0.6520906090736389
raw inform: lat 38.543827199999996 lon 115.0403848raw inform: lat 38.543827199999996 lon 115.0403848 alt -3.427 time 958370 pitch -0.04609024524688721 roll 0.02456703595817089yaw -0.6520888805389404
raw inform: lat 38.5438274 lon 115.04038469999999raw inform: lat 38.5438274 lon 115.04038469999999 alt -3.487 time 959209 pitch -0.04673754423856735 roll 0.024706756696105003yaw -0.6520791053771973
raw inform: lat 38.5438274 lon 115.04038469999999raw inform: lat 38.5438274 lon 115.04038469999999 alt -3.489 time 959229 pitch -0.046779777854681015 roll 0.024632975459098816yaw -0.652057945728302
raw inform: lat 38.5438275 lon 115.04038469999999raw inform: lat 38.5438275 lon 115.04038469999999 alt -3.511 time 959409 pitch -0.04694110155105591 roll 0.024604495614767075yaw -0.6520843505859375
raw inform: lat 38.5438275 lon 115.04038469999999raw inform: lat 38.5438275 lon 115.04038469999999 alt -3.52 time 959489 pitch -0.046968284994363785 roll 0.02460777945816517yaw -0.6520918011665344
raw inform: lat 38.5438275 lon 115.0403846raw inform: lat 38.5438275 lon 115.0403846 alt -3.533 time 959570 pitch -0.04702209681272507 roll 0.024628669023513794yaw -0.6521081328392029
raw inform: lat 38.5438276 lon 115.0403846raw inform: lat 38.5438276 lon 115.0403846 alt -3.5420000000000003 time 959629 pitch -0.047067273408174515 roll 0.02466665394604206yaw -0.6520602703094482
raw inform: lat 38.5438276 lon 115.0403846raw inform: lat 38.5438276 lon 115.0403846 alt -3.549 time 959689 pitch -0.04710703343153 roll 0.02473601885139942yaw -0.6520736813545227
raw inform: lat 38.5438276 lon 115.0403846raw inform: lat 38.5438276 lon 115.0403846 alt -3.569 time 959850 pitch -0.04706820845603943 roll 0.024773117154836655yaw -0.652054488658905
raw inform: lat 38.5438276 lon 115.0403846raw inform: lat 38.5438276 lon 115.0403846 alt -3.577 time 959929 pitch -0.04708387702703476 roll 0.02479713037610054yaw -0.6520431041717529
raw inform: lat 38.5438277 lon 115.0403846raw inform: lat 38.5438277 lon 115.0403846 alt -3.587 time 960050 pitch -0.047048892825841904 roll 0.02480858750641346yaw -0.652071475982666
raw inform: lat 38.5438277 lon 115.0403846raw inform: lat 38.5438277 lon 115.0403846 alt -3.599 time 960189 pitch -0.04703739285469055 roll 0.02479483187198639yaw -0.652070939540863
raw inform: lat 38.5438277 lon 115.0403846raw inform: lat 38.5438277 lon 115.0403846 alt -3.603 time 960250 pitch -0.04699523374438286 roll 0.024798084050416946yaw -0.6520974040031433
raw inform: lat 38.5438277 lon 115.0403846raw inform: lat 38.5438277 lon 115.0403846 alt -3.61 time 960370 pitch -0.04699134826660156 roll 0.02479403465986252yaw -0.6521026492118835
raw inform: lat 38.5438277 lon 115.04038469999999raw inform: lat 38.5438277 lon 115.04038469999999 alt -3.614 time 960450 pitch -0.04700193181633949 roll 0.024784665554761887yaw -0.6521010994911194
raw inform: lat 38.5438277 lon 115.04038469999999raw inform: lat 38.5438277 lon 115.04038469999999 alt -3.616 time 960512 pitch -0.04698437452316284 roll 0.024808691814541817yaw -0.6521059274673462
raw inform: lat 38.5438277 lon 115.04038469999999raw inform: lat 38.5438277 lon 115.04038469999999 alt -3.619 time 960570 pitch -0.046990349888801575 roll 0.024836234748363495yaw -0.6521131992340088
raw inform: lat 38.5438277 lon 115.04038469999999raw inform: lat 38.5438277 lon 115.04038469999999 alt -3.622 time 960650 pitch -0.04699844866991043 roll 0.024822061881422997yaw -0.652109682559967
raw inform: lat 38.5438277 lon 115.04038469999999raw inform: lat 38.5438277 lon 115.04038469999999 alt -3.629 time 960809 pitch -0.0469982773065567 roll 0.024753134697675705yaw -0.6521186828613281
raw inform: lat 38.5438277 lon 115.04038469999999raw inform: lat 38.5438277 lon 115.04038469999999 alt -3.63 time 960829 pitch -0.04699493572115898 roll 0.024965813383460045yaw -0.652186393737793
raw inform: lat 38.543827799999995 lon 115.0403848raw inform: lat 38.543827799999995 lon 115.0403848 alt -3.66 time 961629 pitch -0.047019828110933304 roll 0.024945326149463654yaw -0.6521968245506287
raw inform: lat 38.543827799999995 lon 115.0403848raw inform: lat 38.543827799999995 lon 115.0403848 alt -3.662 time 961690 pitch -0.0469525121152401 roll 0.024901075288653374yaw -0.6521807312965393
raw inform: lat 38.543827799999995 lon 115.04038489999999raw inform: lat 38.543827799999995 lon 115.04038489999999 alt -3.661 time 961809 pitch -0.0469992458820343 roll 0.024908792227506638yaw -0.6521958112716675
raw inform: lat 38.543827799999995 lon 115.04038489999999raw inform: lat 38.543827799999995 lon 115.04038489999999 alt -3.661 time 961850 pitch -0.046931199729442596 roll 0.02488054148852825yaw -0.6522180438041687
raw inform: lat 38.543827799999995 lon 115.04038489999999raw inform: lat 38.543827799999995 lon 115.04038489999999 alt -3.657 time 962009 pitch -0.046931199729442596 roll 0.02488054148852825yaw -0.6522180438041687
raw inform: lat 38.543827799999995 lon 115.04038489999999raw inform: lat 38.543827799999995 lon 115.04038489999999 alt -3.657 time 962029 pitch -0.046904556453228 roll 0.024873964488506317yaw -0.6522213816642761
raw inform: lat 38.543827799999995 lon 115.04038489999999raw inform: lat 38.543827799999995 lon 115.04038489999999 alt -3.652 time 962170 pitch -0.046828754246234894 roll 0.024862034246325493yaw -0.652195394039154
raw inform: lat 38.543827799999995 lon 115.04038489999999raw inform: lat 38.543827799999995 lon 115.04038489999999 alt -3.652 time 962189 pitch -0.046874865889549255 roll 0.02484956569969654yaw -0.6522009968757629
raw inform: lat 38.543827799999995 lon 115.04038489999999raw inform: lat 38.543827799999995 lon 115.04038489999999 alt -3.65 time 962250 pitch -0.046874865889549255 roll 0.02484956569969654yaw -0.6522009968757629
raw inform: lat 38.543827799999995 lon 115.04038489999999raw inform: lat 38.543827799999995 lon 115.04038489999999 alt -3.65 time 962250 pitch -0.04687132686376572 roll 0.02485000528395176yaw -0.652188777923584
raw inform: lat 38.5438277 lon 115.04038489999999raw inform: lat 38.5438277 lon 115.04038489999999 alt -3.646 time 962409 pitch -0.046740997582674026 roll 0.024732349440455437yaw -0.652169406414032
raw inform: lat 38.5438277 lon 115.04038489999999raw inform: lat 38.5438277 lon 115.04038489999999 alt -3.6430000000000002 time 962490 pitch -0.04669656604528427 roll 0.024716198444366455yaw -0.6521561741828918
raw inform: lat 38.5438277 lon 115.040385raw inform: lat 38.5438277 lon 115.040385 alt -3.6430000000000002 time 962512 pitch -0.04670633003115654 roll 0.024721195921301842yaw -0.6521452069282532
raw inform: lat 38.5438277 lon 115.040385raw inform: lat 38.5438277 lon 115.040385 alt -3.749 time 962570 pitch -0.0467035248875618 roll 0.024713153019547462yaw -0.6521403193473816
raw inform: lat 38.5438277 lon 115.040385raw inform: lat 38.5438277 lon 115.040385 alt -3.737 time 962650 pitch -0.04673341289162636 roll 0.024692019447684288yaw -0.6521612405776978
raw inform: lat 38.5438277 lon 115.040385raw inform: lat 38.5438277 lon 115.040385 alt -3.727 time 962750 pitch -0.046705685555934906 roll 0.02471683733165264yaw -0.6521617770195007
raw inform: lat 38.5438277 lon 115.040385raw inform: lat 38.5438277 lon 115.040385 alt -3.721 time 962809 pitch -0.04673536866903305 roll 0.024699613451957703yaw -0.6521560549736023
raw inform: lat 38.5438277 lon 115.040385raw inform: lat 38.5438277 lon 115.040385 alt -3.72 time 962829 pitch -0.04674672707915306 roll 0.024699561297893524yaw -0.6521486639976501
raw inform: lat 38.5438277 lon 115.040385raw inform: lat 38.5438277 lon 115.040385 alt -3.717 time 962911 pitch -0.046682219952344894 roll 0.024737916886806488yaw -0.6521429419517517
raw inform: lat 38.5438277 lon 115.0403851raw inform: lat 38.5438277 lon 115.0403851 alt -3.714 time 963009 pitch -0.046658676117658615 roll 0.024737171828746796yaw -0.6521259546279907
raw inform: lat 38.5438277 lon 115.0403851raw inform: lat 38.5438277 lon 115.0403851 alt -3.714 time 963090 pitch -0.0466308631002903 roll 0.02465694025158882yaw -0.6520994305610657
raw inform: lat 38.5438277 lon 115.0403853raw inform: lat 38.5438277 lon 115.0403853 alt -3.73 time 963871 pitch -0.04663929343223572 roll 0.024657031521201134yaw -0.6520837545394897
raw inform: lat 38.5438277 lon 115.0403853raw inform: lat 38.5438277 lon 115.0403853 alt -3.732 time 963970 pitch -0.04665248841047287 roll 0.024677112698554993yaw -0.6520821452140808
raw inform: lat 38.5438277 lon 115.04038539999999raw inform: lat 38.5438277 lon 115.04038539999999 alt -3.732 time 964190 pitch -0.04658663645386696 roll 0.02473391219973564yaw -0.6520600318908691
raw inform: lat 38.5438277 lon 115.04038539999999raw inform: lat 38.5438277 lon 115.04038539999999 alt -3.733 time 964289 pitch -0.04648589342832565 roll 0.02473762445151806yaw -0.6520369052886963
raw inform: lat 38.5438277 lon 115.04038539999999raw inform: lat 38.5438277 lon 115.04038539999999 alt -3.731 time 964350 pitch -0.04635876789689064 roll 0.02469947561621666yaw -0.6520264148712158
raw inform: lat 38.5438277 lon 115.0403855raw inform: lat 38.5438277 lon 115.0403855 alt -3.726 time 964589 pitch -0.046386055648326874 roll 0.024691395461559296yaw -0.6520380973815918
raw inform: lat 38.5438277 lon 115.0403856raw inform: lat 38.5438277 lon 115.0403856 alt -3.722 time 964689 pitch -0.046402230858802795 roll 0.024697836488485336yaw -0.6520450115203857
raw inform: lat 38.5438277 lon 115.0403856raw inform: lat 38.5438277 lon 115.0403856 alt -3.722 time 964690 pitch -0.046336930245161057 roll 0.024661879986524582yaw -0.6520304679870605
raw inform: lat 38.5438276 lon 115.0403856raw inform: lat 38.5438276 lon 115.0403856 alt -3.717 time 964829 pitch -0.04627249017357826 roll 0.024660561233758926yaw -0.651996374130249
raw inform: lat 38.5438276 lon 115.0403856raw inform: lat 38.5438276 lon 115.0403856 alt -3.717 time 964830 pitch -0.04627211391925812 roll 0.024673283100128174yaw -0.6520153880119324
raw inform: lat 38.5438276 lon 115.0403857raw inform: lat 38.5438276 lon 115.0403857 alt -3.714 time 964989 pitch -0.04618104547262192 roll 0.024778112769126892yaw -0.6519977450370789
raw inform: lat 38.5438276 lon 115.0403858raw inform: lat 38.5438276 lon 115.0403858 alt -3.712 time 965089 pitch -0.046168431639671326 roll 0.02476491779088974yaw -0.651985764503479
raw inform: lat 38.5438276 lon 115.04038589999999raw inform: lat 38.5438276 lon 115.04038589999999 alt -3.713 time 965210 pitch -0.046168431639671326 roll 0.02476491779088974yaw -0.651985764503479
raw inform: lat 38.5438276 lon 115.04038589999999raw inform: lat 38.5438276 lon 115.04038589999999 alt -3.713 time 965210 pitch -0.046163853257894516 roll 0.024771077558398247yaw -0.6519783735275269
raw inform: lat 38.5438276 lon 115.04038589999999raw inform: lat 38.5438276 lon 115.04038589999999 alt -3.714 time 965311 pitch -0.046187568455934525 roll 0.02476300485432148yaw -0.6519735455513
raw inform: lat 38.5438276 lon 115.04038589999999raw inform: lat 38.5438276 lon 115.04038589999999 alt -3.715 time 965389 pitch -0.04622422158718109 roll 0.024741344153881073yaw -0.6519418954849243
raw inform: lat 38.5438276 lon 115.04038589999999raw inform: lat 38.5438276 lon 115.04038589999999 alt -3.716 time 965450 pitch -0.04624050110578537 roll 0.024752045050263405yaw -0.6519371271133423
raw inform: lat 38.5438276 lon 115.04038589999999raw inform: lat 38.5438276 lon 115.04038589999999 alt -3.718 time 965530 pitch -0.0465676486492157 roll 0.02464461512863636yaw -0.6520317196846008
raw inform: lat 38.543827799999995 lon 115.04038609999999raw inform: lat 38.543827799999995 lon 115.04038609999999 alt -3.767 time 966370 pitch -0.04657917469739914 roll 0.02461351826786995yaw -0.6520514488220215
raw inform: lat 38.543827799999995 lon 115.04038609999999raw inform: lat 38.543827799999995 lon 115.04038609999999 alt -3.769 time 966410 pitch -0.0465097539126873 roll 0.024630967527627945yaw -0.6520500779151917
raw inform: lat 38.543827799999995 lon 115.04038609999999raw inform: lat 38.543827799999995 lon 115.04038609999999 alt -3.7760000000000002 time 966511 pitch -0.04653513804078102 roll 0.024625418707728386yaw -0.6520565748214722
raw inform: lat 38.543827799999995 lon 115.04038609999999raw inform: lat 38.543827799999995 lon 115.04038609999999 alt -3.7800000000000002 time 966609 pitch -0.04650992527604103 roll 0.024572337046265602yaw -0.6520689725875854
raw inform: lat 38.543827799999995 lon 115.04038609999999raw inform: lat 38.543827799999995 lon 115.04038609999999 alt -3.782 time 966689 pitch -0.0464920774102211 roll 0.024581000208854675yaw -0.652043342590332
raw inform: lat 38.543827799999995 lon 115.0403862raw inform: lat 38.543827799999995 lon 115.0403862 alt -3.785 time 966890 pitch -0.04642638564109802 roll 0.0245963167399168yaw -0.6520466804504395
raw inform: lat 38.543827799999995 lon 115.0403862raw inform: lat 38.543827799999995 lon 115.0403862 alt -3.782 time 967010 pitch -0.04641998931765556 roll 0.024600524455308914yaw -0.65202796459198
raw inform: lat 38.543827799999995 lon 115.0403862raw inform: lat 38.543827799999995 lon 115.0403862 alt -3.781 time 967071 pitch -0.046433232724666595 roll 0.02460770308971405yaw -0.6520079374313354
raw inform: lat 38.543827799999995 lon 115.0403863raw inform: lat 38.543827799999995 lon 115.0403863 alt -3.774 time 967250 pitch -0.046351730823516846 roll 0.024595387279987335yaw -0.6520054340362549
raw inform: lat 38.543827799999995 lon 115.04038639999999raw inform: lat 38.543827799999995 lon 115.04038639999999 alt -3.77 time 967389 pitch -0.046317052096128464 roll 0.024660684168338776yaw -0.6519982814788818
raw inform: lat 38.543827799999995 lon 115.04038639999999raw inform: lat 38.543827799999995 lon 115.04038639999999 alt -3.7680000000000002 time 967450 pitch -0.04627951979637146 roll 0.024625228717923164yaw -0.6519936919212341
raw inform: lat 38.543827799999995 lon 115.04038639999999raw inform: lat 38.543827799999995 lon 115.04038639999999 alt -3.767 time 967570 pitch -0.04631366953253746 roll 0.02460560016334057yaw -0.6520102620124817
raw inform: lat 38.543827799999995 lon 115.0403865raw inform: lat 38.543827799999995 lon 115.0403865 alt -3.767 time 967650 pitch -0.046264924108982086 roll 0.024621503427624702yaw -0.6520044207572937
raw inform: lat 38.543827799999995 lon 115.0403865raw inform: lat 38.543827799999995 lon 115.0403865 alt -3.7680000000000002 time 967690 pitch -0.046319201588630676 roll 0.024600185453891754yaw -0.6519784927368164
raw inform: lat 38.543827799999995 lon 115.0403865raw inform: lat 38.543827799999995 lon 115.0403865 alt -3.766 time 967850 pitch -0.04633615165948868 roll 0.024591809138655663yaw -0.6519876718521118
raw inform: lat 38.543827799999995 lon 115.04038659999999raw inform: lat 38.543827799999995 lon 115.04038659999999 alt -3.767 time 968009 pitch -0.04633656516671181 roll 0.02460077777504921yaw -0.6519429087638855
raw inform: lat 38.543827799999995 lon 115.04038659999999raw inform: lat 38.543827799999995 lon 115.04038659999999 alt -3.7680000000000002 time 968089 pitch -0.04628445953130722 roll 0.02449837513267994yaw -0.6518290638923645
raw inform: lat 38.543827799999995 lon 115.0403868raw inform: lat 38.543827799999995 lon 115.0403868 alt -3.718 time 969009 pitch -0.046298641711473465 roll 0.02449876256287098yaw -0.6517974138259888
raw inform: lat 38.543827799999995 lon 115.0403869raw inform: lat 38.543827799999995 lon 115.0403869 alt -3.712 time 969209 pitch -0.04643493890762329 roll 0.02450496144592762yaw -0.6517912149429321
raw inform: lat 38.543827799999995 lon 115.0403869raw inform: lat 38.543827799999995 lon 115.0403869 alt -3.71 time 969289 pitch -0.04645121842622757 roll 0.024513134732842445yaw -0.6517517566680908
raw inform: lat 38.543827799999995 lon 115.0403869raw inform: lat 38.543827799999995 lon 115.0403869 alt -3.708 time 969370 pitch -0.04644636809825897 roll 0.024533431977033615yaw -0.6517283320426941
raw inform: lat 38.543827799999995 lon 115.0403869raw inform: lat 38.543827799999995 lon 115.0403869 alt -3.706 time 969410 pitch -0.04639727249741554 roll 0.024589214473962784yaw -0.651721179485321
raw inform: lat 38.5438279 lon 115.040387raw inform: lat 38.5438279 lon 115.040387 alt -3.698 time 969609 pitch -0.04636668041348457 roll 0.02461697719991207yaw -0.6517086625099182
raw inform: lat 38.5438279 lon 115.040387raw inform: lat 38.5438279 lon 115.040387 alt -3.6950000000000003 time 969689 pitch -0.04636259749531746 roll 0.024651193991303444yaw -0.6516888737678528
raw inform: lat 38.5438279 lon 115.04038709999999raw inform: lat 38.5438279 lon 115.04038709999999 alt -3.692 time 969850 pitch -0.04638783633708954 roll 0.02466638945043087yaw -0.6516884565353394
raw inform: lat 38.5438279 lon 115.04038709999999raw inform: lat 38.5438279 lon 115.04038709999999 alt -3.692 time 969871 pitch -0.046304065734148026 roll 0.024744482710957527yaw -0.6516616344451904
raw inform: lat 38.5438279 lon 115.0403872raw inform: lat 38.5438279 lon 115.0403872 alt -3.693 time 970009 pitch -0.04637037217617035 roll 0.024722088128328323yaw -0.6516730785369873
raw inform: lat 38.5438279 lon 115.0403872raw inform: lat 38.5438279 lon 115.0403872 alt -3.693 time 970029 pitch -0.04634353518486023 roll 0.024756532162427902yaw -0.6516247987747192
raw inform: lat 38.5438279 lon 115.04038729999999raw inform: lat 38.5438279 lon 115.04038729999999 alt -3.6910000000000003 time 970189 pitch -0.04627339914441109 roll 0.02475479617714882yaw -0.6516183018684387
raw inform: lat 38.5438279 lon 115.04038729999999raw inform: lat 38.5438279 lon 115.04038729999999 alt -3.69 time 970250 pitch -0.04621440917253494 roll 0.02476326934993267yaw -0.6516037583351135
raw inform: lat 38.5438279 lon 115.0403874raw inform: lat 38.5438279 lon 115.0403874 alt -3.685 time 970409 pitch -0.04614199697971344 roll 0.02479393035173416yaw -0.651608943939209
raw inform: lat 38.5438279 lon 115.0403874raw inform: lat 38.5438279 lon 115.0403874 alt -3.685 time 970410 pitch -0.04611580818891525 roll 0.024810390546917915yaw -0.6515768766403198
raw inform: lat 38.5438279 lon 115.0403875raw inform: lat 38.5438279 lon 115.0403875 alt -3.682 time 970489 pitch -0.04610982909798622 roll 0.02481391467154026yaw -0.6515693664550781
raw inform: lat 38.5438279 lon 115.0403879raw inform: lat 38.5438279 lon 115.0403879 alt -3.605 time 971351 pitch -0.04578396677970886 roll 0.02450750768184662yaw -0.6515858769416809
raw inform: lat 38.5438279 lon 115.040388raw inform: lat 38.5438279 lon 115.040388 alt -3.598 time 971410 pitch -0.0457221120595932 roll 0.024476898834109306yaw -0.6515600681304932
raw inform: lat 38.543827799999995 lon 115.040388raw inform: lat 38.543827799999995 lon 115.040388 alt -3.592 time 971471 pitch -0.04577967897057533 roll 0.02443687804043293yaw -0.6515246033668518
raw inform: lat 38.543827799999995 lon 115.040388raw inform: lat 38.543827799999995 lon 115.040388 alt -3.576 time 971610 pitch -0.045785482972860336 roll 0.02438562549650669yaw -0.6515055298805237
raw inform: lat 38.543827799999995 lon 115.040388raw inform: lat 38.543827799999995 lon 115.040388 alt -3.565 time 971729 pitch -0.04580403119325638 roll 0.024373643100261688yaw -0.651483416557312
raw inform: lat 38.543827799999995 lon 115.040388raw inform: lat 38.543827799999995 lon 115.040388 alt -3.559 time 971809 pitch -0.04581213369965553 roll 0.02436145953834057yaw -0.65147465467453
raw inform: lat 38.543827799999995 lon 115.040388raw inform: lat 38.543827799999995 lon 115.040388 alt -3.556 time 971850 pitch -0.04584350436925888 roll 0.024331945925951004yaw -0.6514594554901123
raw inform: lat 38.543827799999995 lon 115.040388raw inform: lat 38.543827799999995 lon 115.040388 alt -3.547 time 972010 pitch -0.0458715446293354 roll 0.02430940791964531yaw -0.6514614224433899
raw inform: lat 38.543827799999995 lon 115.0403881raw inform: lat 38.543827799999995 lon 115.0403881 alt -3.539 time 972170 pitch -0.04587259143590927 roll 0.02428945153951645yaw -0.6514481902122498
raw inform: lat 38.543827799999995 lon 115.0403881raw inform: lat 38.543827799999995 lon 115.0403881 alt -3.536 time 972250 pitch -0.0458524152636528 roll 0.024303996935486794yaw -0.6514381766319275
raw inform: lat 38.543827799999995 lon 115.0403881raw inform: lat 38.543827799999995 lon 115.0403881 alt -3.5340000000000003 time 972409 pitch -0.04594092071056366 roll 0.0242617130279541yaw -0.6514561176300049
raw inform: lat 38.543827799999995 lon 115.0403881raw inform: lat 38.543827799999995 lon 115.0403881 alt -3.5340000000000003 time 972429 pitch -0.045992594212293625 roll 0.024271855130791664yaw -0.6514995694160461
raw inform: lat 38.5438279 lon 115.0403881raw inform: lat 38.5438279 lon 115.0403881 alt -3.537 time 972609 pitch -0.046020910143852234 roll 0.02427751012146473yaw -0.651494562625885
raw inform: lat 38.5438279 lon 115.040388raw inform: lat 38.5438279 lon 115.040388 alt -3.5420000000000003 time 972729 pitch -0.046138059347867966 roll 0.024222170934081078yaw -0.6514644622802734
raw inform: lat 38.5438279 lon 115.040388raw inform: lat 38.5438279 lon 115.040388 alt -3.5460000000000003 time 972770 pitch -0.04617501422762871 roll 0.02419724315404892yaw -0.6514885425567627
raw inform: lat 38.5438279 lon 115.040388raw inform: lat 38.5438279 lon 115.040388 alt -3.551 time 972850 pitch -0.04620753601193428 roll 0.024153374135494232yaw -0.6515030860900879
raw inform: lat 38.5438279 lon 115.040388raw inform: lat 38.5438279 lon 115.040388 alt -3.565 time 973009 pitch -0.04626524820923805 roll 0.024136334657669067yaw -0.6515113115310669
raw inform: lat 38.5438279 lon 115.040388raw inform: lat 38.5438279 lon 115.040388 alt -3.567 time 973050 pitch -0.04667365550994873 roll 0.02430644817650318yaw -0.6514782309532166
raw inform: lat 38.5438282 lon 115.0403881raw inform: lat 38.5438282 lon 115.0403881 alt -3.641 time 973770 pitch -0.04667563736438751 roll 0.024302281439304352yaw -0.6514760851860046
raw inform: lat 38.5438282 lon 115.0403881raw inform: lat 38.5438282 lon 115.0403881 alt -3.649 time 973850 pitch -0.046693526208400726 roll 0.02429935149848461yaw -0.6514756083488464
raw inform: lat 38.5438282 lon 115.0403881raw inform: lat 38.5438282 lon 115.0403881 alt -3.67 time 974029 pitch -0.04668377712368965 roll 0.02430715039372444yaw -0.6514711380004883
raw inform: lat 38.5438282 lon 115.0403881raw inform: lat 38.5438282 lon 115.0403881 alt -3.672 time 974050 pitch -0.04668523743748665 roll 0.024313388392329216yaw -0.651467502117157
raw inform: lat 38.5438282 lon 115.0403881raw inform: lat 38.5438282 lon 115.0403881 alt -3.6750000000000003 time 974090 pitch -0.0467255599796772 roll 0.024332398548722267yaw -0.651484489440918
raw inform: lat 38.5438283 lon 115.0403881raw inform: lat 38.5438283 lon 115.0403881 alt -3.6950000000000003 time 974250 pitch -0.04676896706223488 roll 0.024250304326415062yaw -0.6514856815338135
raw inform: lat 38.5438283 lon 115.0403881raw inform: lat 38.5438283 lon 115.0403881 alt -3.7070000000000003 time 974370 pitch -0.046770695596933365 roll 0.024221496656537056yaw -0.6514843702316284
raw inform: lat 38.5438283 lon 115.0403881raw inform: lat 38.5438283 lon 115.0403881 alt -3.715 time 974489 pitch -0.046764157712459564 roll 0.024214139208197594yaw -0.6514972448348999
raw inform: lat 38.5438283 lon 115.0403881raw inform: lat 38.5438283 lon 115.0403881 alt -3.715 time 974489 pitch -0.0468168631196022 roll 0.02419842779636383yaw -0.6515098214149475
raw inform: lat 38.5438283 lon 115.0403881raw inform: lat 38.5438283 lon 115.0403881 alt -3.719 time 974529 pitch -0.046887580305337906 roll 0.024214968085289yaw -0.6515415906906128
raw inform: lat 38.5438283 lon 115.0403881raw inform: lat 38.5438283 lon 115.0403881 alt -3.854 time 974670 pitch -0.046819694340229034 roll 0.024235643446445465yaw -0.6515182852745056
raw inform: lat 38.5438283 lon 115.0403882raw inform: lat 38.5438283 lon 115.0403882 alt -3.86 time 974809 pitch -0.04669976234436035 roll 0.02431803196668625yaw -0.6514910459518433
raw inform: lat 38.5438283 lon 115.0403882raw inform: lat 38.5438283 lon 115.0403882 alt -3.865 time 974950 pitch -0.046658821403980255 roll 0.024418357759714127yaw -0.6514943838119507
raw inform: lat 38.5438283 lon 115.0403882raw inform: lat 38.5438283 lon 115.0403882 alt -3.868 time 975071 pitch -0.046625684946775436 roll 0.024398675188422203yaw -0.6514926552772522
raw inform: lat 38.5438283 lon 115.0403882raw inform: lat 38.5438283 lon 115.0403882 alt -3.868 time 975090 pitch -0.046599648892879486 roll 0.02446242794394493yaw -0.6514887809753418
raw inform: lat 38.5438283 lon 115.0403884raw inform: lat 38.5438283 lon 115.0403884 alt -3.87 time 975389 pitch -0.04654102399945259 roll 0.02457229234278202yaw -0.6514793038368225
raw inform: lat 38.5438283 lon 115.0403884raw inform: lat 38.5438283 lon 115.0403884 alt -3.87 time 975409 pitch -0.046281829476356506 roll 0.024621279910206795yaw -0.6514222621917725
raw inform: lat 38.5438282 lon 115.04038879999999raw inform: lat 38.5438282 lon 115.04038879999999 alt -3.86 time 976270 pitch -0.046195656061172485 roll 0.024627331644296646yaw -0.6514179110527039
raw inform: lat 38.5438282 lon 115.0403889raw inform: lat 38.5438282 lon 115.0403889 alt -3.855 time 976409 pitch -0.04619503393769264 roll 0.02461947500705719yaw -0.6514071822166443
raw inform: lat 38.5438282 lon 115.0403889raw inform: lat 38.5438282 lon 115.0403889 alt -3.855 time 976410 pitch -0.04622303694486618 roll 0.024561716243624687yaw -0.651372492313385
raw inform: lat 38.5438282 lon 115.0403889raw inform: lat 38.5438282 lon 115.0403889 alt -3.852 time 976570 pitch -0.04626837000250816 roll 0.024542907252907753yaw -0.6513900756835938
raw inform: lat 38.5438282 lon 115.0403889raw inform: lat 38.5438282 lon 115.0403889 alt -3.852 time 976589 pitch -0.04626968502998352 roll 0.02453126199543476yaw -0.6513733863830566
raw inform: lat 38.5438282 lon 115.0403889raw inform: lat 38.5438282 lon 115.0403889 alt -3.851 time 976689 pitch -0.0462941974401474 roll 0.0245385579764843yaw -0.6513559222221375
raw inform: lat 38.5438282 lon 115.0403889raw inform: lat 38.5438282 lon 115.0403889 alt -3.845 time 976830 pitch -0.04632627218961716 roll 0.02457663044333458yaw -0.6513557434082031
raw inform: lat 38.5438282 lon 115.0403889raw inform: lat 38.5438282 lon 115.0403889 alt -3.843 time 977009 pitch -0.0463288277387619 roll 0.024578122422099113yaw -0.6513344049453735
raw inform: lat 38.5438282 lon 115.04038899999999raw inform: lat 38.5438282 lon 115.04038899999999 alt -3.842 time 977089 pitch -0.046277180314064026 roll 0.024551983922719955yaw -0.6513357162475586
raw inform: lat 38.5438282 lon 115.04038899999999raw inform: lat 38.5438282 lon 115.04038899999999 alt -3.839 time 977209 pitch -0.046335671097040176 roll 0.024561725556850433yaw -0.6513400673866272
raw inform: lat 38.5438282 lon 115.04038899999999raw inform: lat 38.5438282 lon 115.04038899999999 alt -3.838 time 977229 pitch -0.046292271465063095 roll 0.02458222769200802yaw -0.651344895362854
raw inform: lat 38.5438282 lon 115.04038899999999raw inform: lat 38.5438282 lon 115.04038899999999 alt -3.8360000000000003 time 977389 pitch -0.04626472666859627 roll 0.024577027186751366yaw -0.6513400077819824
raw inform: lat 38.5438282 lon 115.04038899999999raw inform: lat 38.5438282 lon 115.04038899999999 alt -3.834 time 977489 pitch -0.04623193293809891 roll 0.02452273480594158yaw -0.6513489484786987
raw inform: lat 38.5438282 lon 115.0403891raw inform: lat 38.5438282 lon 115.0403891 alt -3.83 time 977610 pitch -0.04620779678225517 roll 0.024541106075048447yaw -0.6513519287109375
raw inform: lat 38.5438282 lon 115.0403891raw inform: lat 38.5438282 lon 115.0403891 alt -3.825 time 977770 pitch -0.046274326741695404 roll 0.024575702846050262yaw -0.6513705253601074
raw inform: lat 38.5438282 lon 115.0403891raw inform: lat 38.5438282 lon 115.0403891 alt -3.8240000000000003 time 977809 pitch -0.046289388090372086 roll 0.02458145096898079yaw -0.6513875722885132
raw inform: lat 38.5438282 lon 115.0403891raw inform: lat 38.5438282 lon 115.0403891 alt -3.823 time 977889 pitch -0.04645637795329094 roll 0.024634765461087227yaw -0.6513174772262573
raw inform: lat 38.5438282 lon 115.04038919999999raw inform: lat 38.5438282 lon 115.04038919999999 alt -3.831 time 978829 pitch -0.04645022749900818 roll 0.02469584159553051yaw -0.6513497829437256
raw inform: lat 38.5438282 lon 115.04038919999999raw inform: lat 38.5438282 lon 115.04038919999999 alt -3.8320000000000003 time 978889 pitch -0.046462204307317734 roll 0.024651436135172844yaw -0.6513174772262573
raw inform: lat 38.5438282 lon 115.04038919999999raw inform: lat 38.5438282 lon 115.04038919999999 alt -3.834 time 979009 pitch -0.04643036797642708 roll 0.024608926847577095yaw -0.651322603225708
raw inform: lat 38.5438282 lon 115.04038919999999raw inform: lat 38.5438282 lon 115.04038919999999 alt -3.837 time 979209 pitch -0.04642903804779053 roll 0.024557868018746376yaw -0.651343584060669
raw inform: lat 38.5438282 lon 115.04038919999999raw inform: lat 38.5438282 lon 115.04038919999999 alt -3.838 time 979250 pitch -0.046438805758953094 roll 0.024591738358139992yaw -0.6513069868087769
raw inform: lat 38.5438283 lon 115.0403893raw inform: lat 38.5438283 lon 115.0403893 alt -3.84 time 979389 pitch -0.046384088695049286 roll 0.024593060836195946yaw -0.6513121724128723
raw inform: lat 38.5438283 lon 115.0403893raw inform: lat 38.5438283 lon 115.0403893 alt -3.84 time 979450 pitch -0.046398624777793884 roll 0.024614635854959488yaw -0.6513179540634155
raw inform: lat 38.5438283 lon 115.0403893raw inform: lat 38.5438283 lon 115.0403893 alt -3.84 time 979489 pitch -0.0464714877307415 roll 0.024690765887498856yaw -0.651317834854126
raw inform: lat 38.5438283 lon 115.0403893raw inform: lat 38.5438283 lon 115.0403893 alt -3.84 time 979629 pitch -0.04647659882903099 roll 0.024702882394194603yaw -0.6512986421585083
raw inform: lat 38.543828399999995 lon 115.0403893raw inform: lat 38.543828399999995 lon 115.0403893 alt -3.84 time 979690 pitch -0.04646044224500656 roll 0.02470434084534645yaw -0.6513148546218872
raw inform: lat 38.543828399999995 lon 115.0403894raw inform: lat 38.543828399999995 lon 115.0403894 alt -3.835 time 979870 pitch -0.04642065614461899 roll 0.02468656748533249yaw -0.6512914299964905
raw inform: lat 38.543828399999995 lon 115.0403894raw inform: lat 38.543828399999995 lon 115.0403894 alt -3.831 time 980010 pitch -0.04642065614461899 roll 0.02468656748533249yaw -0.6512914299964905
raw inform: lat 38.543828399999995 lon 115.0403894raw inform: lat 38.543828399999995 lon 115.0403894 alt -3.831 time 980010 pitch -0.046398960053920746 roll 0.024693725630640984yaw -0.6512816548347473
raw inform: lat 38.543828399999995 lon 115.0403894raw inform: lat 38.543828399999995 lon 115.0403894 alt -3.83 time 980030 pitch -0.04641135036945343 roll 0.02468322589993477yaw -0.6513245105743408
raw inform: lat 38.543828399999995 lon 115.04038949999999raw inform: lat 38.543828399999995 lon 115.04038949999999 alt -3.823 time 980209 pitch -0.04644674435257912 roll 0.024665934965014458yaw -0.651358962059021
raw inform: lat 38.543828399999995 lon 115.04038949999999raw inform: lat 38.543828399999995 lon 115.04038949999999 alt -3.8200000000000003 time 980289 pitch -0.046439219266176224 roll 0.024658771231770515yaw -0.6513673067092896
raw inform: lat 38.543828399999995 lon 115.04038949999999raw inform: lat 38.543828399999995 lon 115.04038949999999 alt -3.817 time 980329 pitch -0.04643407091498375 roll 0.024658327922225yaw -0.6513703465461731
raw inform: lat 38.543828399999995 lon 115.04038949999999raw inform: lat 38.543828399999995 lon 115.04038949999999 alt -3.815 time 980370 pitch -0.04635470733046532 roll 0.024652183055877686yaw -0.6513587236404419
raw inform: lat 38.5438283 lon 115.0403898raw inform: lat 38.5438283 lon 115.0403898 alt -3.823 time 981209 pitch -0.04623303934931755 roll 0.024656478315591812yaw -0.6513643860816956
raw inform: lat 38.5438283 lon 115.0403898raw inform: lat 38.5438283 lon 115.0403898 alt -3.823 time 981210 pitch -0.046245552599430084 roll 0.024635905399918556yaw -0.6513833999633789
raw inform: lat 38.543828399999995 lon 115.0403898raw inform: lat 38.543828399999995 lon 115.0403898 alt -3.825 time 981370 pitch -0.0463140569627285 roll 0.024632714688777924yaw -0.651438295841217
raw inform: lat 38.543828399999995 lon 115.0403898raw inform: lat 38.543828399999995 lon 115.0403898 alt -3.826 time 981389 pitch -0.046324945986270905 roll 0.024644019082188606yaw -0.6513983011245728
raw inform: lat 38.543828399999995 lon 115.0403898raw inform: lat 38.543828399999995 lon 115.0403898 alt -3.8280000000000003 time 981489 pitch -0.046392180025577545 roll 0.02466794289648533yaw -0.651393473148346
raw inform: lat 38.543828399999995 lon 115.0403898raw inform: lat 38.543828399999995 lon 115.0403898 alt -3.831 time 981570 pitch -0.046369586139917374 roll 0.024671262130141258yaw -0.6513668298721313
raw inform: lat 38.543828399999995 lon 115.0403898raw inform: lat 38.543828399999995 lon 115.0403898 alt -3.8320000000000003 time 981610 pitch -0.046388112008571625 roll 0.02469448558986187yaw -0.6513740420341492
raw inform: lat 38.543828399999995 lon 115.0403898raw inform: lat 38.543828399999995 lon 115.0403898 alt -3.835 time 981689 pitch -0.04643698409199715 roll 0.024678468704223633yaw -0.6513993740081787
